stop_name,stop_id,stop_lat,stop_lon
Fuhrenweg,369886681,53.1350704,8.1458398
Waterender Weg,353044608,53.1547474,8.2447153
Mühlenhofsweg,659957027,53.1658137,8.2385449
Ewigkeit,348086700,53.115238,8.2128886
Westerstraße,677530887,53.1419016,8.1979981
Wahnbäkenweg,673234549,53.1939063,8.2434703
Heidkamp,264128488,53.1891912,8.1565111
Ekernstraße,671193399,53.1865208,8.2431326
Schwertlilienweg,354643355,53.0962443,8.2539436
Oldeweg,291045975,53.1069131,8.2755298
Dresdener Straße,504240361,53.1408871,8.1789213
Gerhard-Schnitger-Straße,271231899,53.0943931,8.2374241
Bäkeweg,359677881,53.1266924,8.1807382
Dr.-Th.-Goerlitz-Str.,298873218,53.1647072,8.1807636
Robert-von-Mayer-Straße,677042578,53.0929166,8.2159542
Am Sportplatz,268841989,53.1855961,8.1709663
Tjarks,353029397,53.0918138,8.1921639
Bürgereschstraße,365419446,53.1529626,8.2182112
Kennedystraße,206163315,53.140324,8.164813
Artillerieweg,365093255,53.152588,8.188312
Pestalozzistraße,256989786,53.1277516,8.1852621
Mohrstraße,257596925,53.1251942,8.2199715
Haarenfeld,206163309,53.1408479,8.1824099
Alte Dorfstraße,253748133,53.1659807,8.1571383
Pferdemarkt-A,206154095,53.146327,8.2143685
Brookweg,1449046377,53.1725152,8.1941352
Pferdemarkt-C,206154095,53.146327,8.2143685
Pferdemarkt-B,206154095,53.146327,8.2143685
Dr.-Schüßler-Str./Klinikum,271232011,53.1131271,8.211643
Siebenbürger Straße,263717782,53.1624652,8.1914854
Stiftsweg,349104114,53.1613423,8.2232542
Bremer Straße,348098250,53.1320677,8.2231299
Billunger Weg,247360764,53.1349856,8.1707609
Hans-Fleischer-Straße,348589118,53.0986919,8.2322777
Karl-Jaspers-Klinik,256100642,53.1680779,8.1416394
Käthe-Kollwitz-Straße,349104123,53.1701512,8.2196982
Zaunkönigstraße,354666921,53.1198586,8.2447111
Staatsarchiv,350235430,53.1338022,8.2194331
Schleistraße,294311559,53.1922483,8.2088077
Am Vogelbusch,343502553,53.0959393,8.1854345
Sandbergstraße,274761048,53.2016059,8.2440739
Victoriastraße,270824445,53.1385159,8.2406648
Nibelungenstraße,353044604,53.152772,8.2402838
Geestkamp,664017207,53.1723437,8.2494586
Schwarzer Weg,392462464,53.1827525,8.1789588
Bhf. Krusenbusch,270374289,53.0982056,8.2431202
Bachstraße,254503186,53.1302793,8.2157732
Carl-Friedrich-Gauß-Str.,676875447,53.101716,8.2365549
Annabergstraße,677091863,53.0888417,8.217182
Hunteweg,353371587,53.1036118,8.1833832
Brandenburger Straße,655389981,53.1096165,8.2191304
Florianstraße,365573156,53.134419,8.1667211
Westeresch,396137712,53.1654873,8.2457668
Brahmkamp,353044611,53.1576034,8.2469362
Rummelweg,654100625,53.1400973,8.1953945
Ohlenbuschweg,258127261,53.1279759,8.1900158
Hogenkamp,291038699,53.1188388,8.1915778
Graf-Dietrich-Straße,206159535,53.1535324,8.2326206
Lerigauweg,503800172,53.1302992,8.175922
Stralsunder Straße,655389985,53.1088561,8.224132
Eßkamp,360067662,53.1703261,8.2113787
Trakehnenstraße,365363081,53.1611793,8.1927523
Dwaschweg,265797457,53.0963042,8.2354074
Hackenweg,360068326,53.1676198,8.2139884
Heidschnuckenweg,271231961,53.0950093,8.2285511
von-Finckh-Straße,1481298465,53.1527567,8.2109287
Brachvogelweg,266055504,53.1187836,8.2371892
Marktplatz Eversten,654100645,53.1304876,8.1559661
Niendorfer Weg,243008656,53.1674613,8.2436108
Mittelkamp,665751809,53.1891814,8.2425899
Wehdestraße,353044601,53.151341,8.2370174
Krögerskamp,655389991,53.1217045,8.2198464
Dürerstraße,255936118,53.1740836,8.1594999
Westerholtsweg,677091868,53.0865499,8.220121
Rudolf-Diesel-Straße,656495883,53.1255946,8.2235241
Pirolweg,503800168,53.135266,8.1752618
Achterdiek,353371985,53.1122234,8.1905521
Schulweg,259862606,53.1612305,8.2069745
IKEA,257430733,53.1395349,8.258202
Eversten,654100645,53.1304876,8.1559661
Ferdinand-Koch-Straße,266055483,53.1214321,8.2367744
Drielaker Straße,364152332,53.1349795,8.2371964
Margaretenstraße,316409926,53.1470345,8.2035606
Dorfweg,310681960,53.0915603,8.2133613
Friedrich-Ebert-Straße,353044613,53.1611931,8.2491264
Sandkamp,655389989,53.1190902,8.2191164
Uhlhornsweg,206163311,53.1410587,8.1759174
Sportpark Osternburg,354656278,53.1147445,8.2541426
An der Schmiede,520617573,53.1111126,8.269127
Franz-Marc-Straße,655389974,53.103283,8.2252289
Bodenburgallee,246185931,53.1305445,8.1911105
Famila,264499371,53.1573331,8.174233
Tweelbäker Tredde,354643331,53.0996016,8.2476297
Kriegerstraße,152715088,53.1509623,8.2169153
ZOB-B,538207187,53.1449801,8.2234912
Klingenbergplatz,533876267,53.1085689,8.2083492
ZOB-C,538207187,53.1449801,8.2234912
ZOB-A,538207187,53.1449801,8.2234912
Leffersweg,348638192,53.1268139,8.238623
ZOB-D,538207187,53.1449801,8.2234912
Muttenpottsweg,349104121,53.1850353,8.2184531
Clausewitzstraße,396137737,53.1632686,8.2459419
Sackhofsweg,360067658,53.1721883,8.2095481
P+R Landwehrstraße,656495880,53.1241485,8.2221792
Waldfriedhof,353049360,53.1945166,8.217964
Am Wüschemeer,676875455,53.1052139,8.2372585
Grotepool,158683704,53.1512564,8.1766862
Eibenweg,74970986,53.1234867,8.1715792
Marienstraße,529483428,53.1420028,8.2035612
Mittelweg,299802199,53.170619,8.1898158
Sportweg,206163313,53.1390908,8.1683942
Melkbrink,303387394,53.1568364,8.2094651
Schützenweg,350221700,53.1460984,8.1871724
Leipziger Straße,206163308,53.1422415,8.1863835
Wiefelsteder Straße,268787853,53.1831834,8.1858532
Johann-Justus-Weg,301415779,53.1618577,8.1784537
Zanderweg,331173654,53.1876607,8.1982128
Infanterieweg,371868072,53.150903,8.1924971
Weser-Ems-Halle,353035456,53.1489873,8.2261228
Staustraße-A,205107854,53.1404371,8.2164763
Lärchenring,249804898,53.11156,8.2370472
Oldenrome,349104124,53.1702406,8.2170014
Triftweg,349104118,53.173531,8.2297707
Nordstraße,403786819,53.1352962,8.2275117
Julius-Mosen-Platz-A,205114687,53.1410967,8.2087455
Dersagauweg,815215284,53.1328268,8.176165
Schützenhofstraße,257598348,53.1287911,8.2254189
Julius-Mosen-Platz-B,205114687,53.1410967,8.2087455
Schloßplatz-B,677530885,53.1385035,8.2178894
Julius-Mosen-Platz-C,205114687,53.1410967,8.2087455
Schloßplatz-A,677530885,53.1385035,8.2178894
Helmsweg,364153776,53.1213586,8.2537981
Nadorst,354930187,53.1693581,8.2307123
Am Bahndamm,354666924,53.1210878,8.240075
Straßburger Straße,235400113,53.1477809,8.2251962
Rohdenweg,354656266,53.1105105,8.2601826
Bogenstraße,365415818,53.1560525,8.2203696
Sandkruger Straße,582588195,53.1039323,8.2060845
Leuchtenburger Straße,268423337,53.1841713,8.183783
Max-Beckmann-Straße,655389987,53.1088729,8.2289604
P+R Marschweg/ OLantis,353029395,53.1291049,8.2046423
Kanal,290711259,53.1158155,8.1911585
Neuer Hort,353371591,53.0937745,8.1902608
Klinikum Oldenburg,655389983,53.1123997,8.2188617
Borchersweg,412055583,53.106921,8.2754449
Otto-Wels-Straße,676985004,53.0963877,8.2076346
Schafjückenweg,353049347,53.193335,8.2142872
Heinrich-Früstück-Straße,65168972,53.0905778,8.2404703
Gerhard-Stalling-Straße,364153445,53.1173924,8.2576775
Theodor-Heuss-Straße,503800173,53.1381783,8.1643884
Kurlandallee,353044620,53.1686204,8.2367817
Bümmerstede,345311783,53.0970676,8.2384982
Ludwig-Erhard-Straße,784347967,53.1316817,8.160429
Gr.-Anton-Günther-Schule,517717553,53.1329375,8.2183471
Trommelweg,206159537,53.1608885,8.240445
Osternburger Kanal,182840583,53.1256661,8.2153905
Rennplatz,353044617,53.1692571,8.2402113
An den Voßbergen,655389971,53.1154005,8.216465
Neuer Friedhof,387829654,53.1554241,8.1997008
Kath.Friedh./BBS Haarent.,350221693,53.1451418,8.189399
Fahrenkamp,370628786,53.1841408,8.1973109
Patentbusch,353050014,53.1977661,8.2155539
Drielake,364152337,53.1298764,8.2506099
Dragonerstraße,270824453,53.135572,8.2336771
Im Eichengrund,293812234,53.1862125,8.2116811
Largauweg,266635890,53.1255293,8.2441843
P+R Westfalend./ OLantis,298900469,53.1277407,8.2097427
Am Wallplacken,271232025,53.122694,8.2181825
Werrastraße,270824444,53.1384237,8.2551846
Kreyen-Centrum,676875446,53.1006583,8.2317992
Warnsweg,364152335,53.1323369,8.2457776
Stieglitzweg,354666911,53.1238215,8.2388671
Kielweg,655389962,53.103429,8.2092587
Ofen,253414566,53.1687162,8.150206
Glatzer Straße,353083620,53.1671433,8.182236
Scheideweg,360178818,53.1638683,8.2173565
Am Festungsgraben,350235422,53.1358611,8.2176635
Pulverturm-A,205114688,53.1380558,8.2128502
Rauhehorst,298874239,53.1690426,8.1861372
Pulverturm-B,205114688,53.1380558,8.2128502
Bloherfelde,206163318,53.1406783,8.1462714
von-Helmholtz-Straße,311301493,53.1019798,8.2168354
Sprungweg,677091856,53.0836735,8.2238747
Dillweg,664017209,53.1805713,8.2465002
Beentweg,270374284,53.0942175,8.2429799
Kurt-Huber-Straße,248776678,53.1525556,8.1729392
Lasiusstraße,247539333,53.141615,8.1919269
Zur Huntebrücke,85686293,53.1066802,8.1859361
Dedestraße,364152329,53.1340192,8.2278209
von-Thünen-Straße,247456793,53.1256085,8.1957161
Schmidt-Rottluff-Straße,655389977,53.1043385,8.2289696
Thomasburg,31677475,53.1260934,8.1721259
Am Tegelbusch,677530898,53.1602933,8.1675592
Nikolausstraße,715827540,53.1389536,8.2217763
Lüttichstraße,303397082,53.1583252,8.2213817
Tappenbeckstraße,694264783,53.1379599,8.2016033
Ammerländer,664008241,53.1432852,8.1935617
Feldahornweg,409268276,53.2000821,8.2013411
Schellsteder Weg,359959193,53.1695009,8.2346638
Masurenstraße,104606304,53.1587977,8.1818804
Wunderburgstraße,266055482,53.1242238,8.2363415
Fachhochschule,527872512,53.1416116,8.2032865
Eichendorffstraße,243511291,53.1261573,8.2041195
Am Ostkamp,271283995,53.1844283,8.1741988
Pophankenweg,254499661,53.1552454,8.1711961
Carl-v.-Ossietzky-Str.,1314055326,53.1525506,8.1727847
Quendelstraße,365361236,53.1644978,8.1895319
Herrenweg,270824492,53.1240942,8.2495495
Ammerlandstraße,392462466,53.1930585,8.1854445
Am Schmeel,270374279,53.0893128,8.2437319
Zuschlag,206159555,53.1703719,8.2240679
Ostring,353049365,53.1984975,8.2181596
Kanalbrücke,271774345,53.1140282,8.1936542
Ostlandstraße,206159538,53.1641734,8.2364014
Meinardusstraße,715827508,53.1340395,8.204873
Fliegerhorst,345246705,53.1759639,8.1906338
Anton-Günther-Straße,348053582,53.1282658,8.2212495
Wichmannsweg,364155067,53.133455,8.2428312
Otto-Suhr-Straße,365573152,53.1332442,8.1641911
Eichenallee,353371593,53.1098811,8.1886868
Wahnbek,72796474,53.2043667,8.248477
Adalbert-Stifter-Straße,31408565,53.1256155,8.2001075
Dr.-Behring-Straße,271231992,53.1066337,8.2071479
Ohmstede,353044615,53.1676836,8.2484416
Giesenweg,655389968,53.1088849,8.2140488
Bürgerbuschweg,355232675,53.1765089,8.206027
Kampstr./Jüdischer Friedh.,270824455,53.1338485,8.230169